transforms:
- header:
    stamp:
      sec: 133
      nanosec: 937000000
    frame_id: dobby2/odom
  child_frame_id: dobby2/base_footprint
  transform:
    translation:
      x: 2.6460410951873477e-14
      y: 1.984481972821231e-27
      z: 0.0
    rotation:
      x: 0.0
      y: 0.0
      z: 1.3090320988723567e-13
      w: 1.0
---
transforms:
- header:
    stamp:
      sec: 133
      nanosec: 940000000
    frame_id: odom
  child_frame_id: base_footprint
  transform:
    translation:
      x: -4.037235692336625e-11
      y: 1.3298145412497707e-21
      z: 0.0
    rotation:
      x: 0.0
      y: 0.0
      z: -8.46719667284026e-12
      w: 1.0
---
transforms:
- header:
    stamp:
      sec: 133
      nanosec: 950000000
    frame_id: base_link
  child_frame_id: left_wheel
  transform:
    translation:
      x: 0.0
      y: 0.2375
      z: 0.0
    rotation:
      x: -0.7071067811865475
      y: -1.575939523731442e-10
      z: -1.5759395237314425e-10
      w: 0.7071067811865476
- header:
    stamp:
      sec: 133
      nanosec: 950000000
    frame_id: base_link
  child_frame_id: right_wheel
  transform:
    translation:
      x: 0.0
      y: -0.2375
      z: 0.0
    rotation:
      x: 0.7071067811865475
      y: -1.884371670622373e-10
      z: 1.8843716706223732e-10
      w: 0.7071067811865476
---
transforms:
- header:
    stamp:
      sec: 133
      nanosec: 957000000
    frame_id: dobby2/odom
  child_frame_id: dobby2/base_footprint
  transform:
    translation:
      x: 2.6460429401166362e-14
      y: 1.984486802963823e-27
      z: 0.0
    rotation:
      x: 0.0
      y: 0.0
      z: 1.3090317155404558e-13
      w: 1.0
---
transforms:
- header:
    stamp:
      sec: 133
      nanosec: 960000000
    frame_id: odom
  child_frame_id: base_footprint
  transform:
    translation:
      x: -4.0372356925077136e-11
      y: 1.3298145412787435e-21
      z: 0.0
    rotation:
      x: 0.0
      y: 0.0
      z: -8.46719689353212e-12
      w: 1.0
---
transforms:
- header:
    stamp:
      sec: 133
      nanosec: 977000000
    frame_id: dobby2/odom
  child_frame_id: dobby2/base_footprint
  transform:
    translation:
      x: 2.6460446986926723e-14
      y: 1.9844914070266673e-27
      z: 0.0
    rotation:
      x: 0.0
      y: 0.0
      z: 1.3090312977129118e-13
      w: 1.0
---
transforms:
- header:
    stamp:
      sec: 133
      nanosec: 980000000
    frame_id: dobby2/base_link
  child_frame_id: dobby2/left_wheel
  transform:
    translation:
      x: 0.0
      y: 0.2375
      z: 0.0
    rotation:
      x: -0.7071067811865475
      y: -1.2502238408500506e-13
      z: -1.250223840850051e-13
      w: 0.7071067811865476
- header:
    stamp:
      sec: 133
      nanosec: 980000000
    frame_id: dobby2/base_link
  child_frame_id: dobby2/right_wheel
  transform:
    translation:
      x: 0.0
      y: -0.2375
      z: 0.0
    rotation:
      x: 0.7071067811865475
      y: 3.5181466678433327e-13
      z: -3.518146667843333e-13
      w: 0.7071067811865476
---
transforms:
- header:
    stamp:
      sec: 133
      nanosec: 980000000
    frame_id: odom
  child_frame_id: base_footprint
  transform:
    translation:
      x: -4.0372356926127545e-11
      y: 1.3298145412965313e-21
      z: 0.0
    rotation:
      x: 0.0
      y: 0.0
      z: -8.46719711325475e-12
      w: 1.0
---
transforms:
- header:
    stamp:
      sec: 133
      nanosec: 997000000
    frame_id: dobby2/odom
  child_frame_id: dobby2/base_footprint
  transform:
    translation:
      x: 2.6460465974780596e-14
      y: 1.984496378164887e-27
      z: 0.0
    rotation:
      x: 0.0
      y: 0.0
      z: 1.3090308888785942e-13
      w: 1.0
---
transforms:
- header:
    stamp:
      sec: 134
      nanosec: 0
    frame_id: odom
  child_frame_id: base_footprint
  transform:
    translation:
      x: -4.037235692596237e-11
      y: 1.329814541293734e-21
      z: 0.0
    rotation:
      x: 0.0
      y: 0.0
      z: -8.467197333372019e-12
      w: 1.0
---
transforms:
- header:
    stamp:
      sec: 134
      nanosec: 0
    frame_id: base_link
  child_frame_id: left_wheel
  transform:
    translation:
      x: 0.0
      y: 0.2375
      z: 0.0
    rotation:
      x: -0.7071067811865475
      y: -1.5759395138001074e-10
      z: -1.5759395138001076e-10
      w: 0.7071067811865476
- header:
    stamp:
      sec: 134
      nanosec: 0
    frame_id: base_link
  child_frame_id: right_wheel
  transform:
    translation:
      x: 0.0
      y: -0.2375
      z: 0.0
    rotation:
      x: 0.7071067811865475
      y: -1.8843716807250123e-10
      z: 1.8843716807250126e-10
      w: 0.7071067811865476
---
transforms:
- header:
    stamp:
      sec: 135
      nanosec: 0
    frame_id: map
  child_frame_id: odom
  transform:
    translation:
      x: 1.533616476565049e-11
      y: 3.0528212540434873e-22
      z: 0.0
    rotation:
      x: -0.0
      y: -0.0
      z: 1.8836867350358133e-11
      w: 1.0
---
transforms:
- header:
    stamp:
      sec: 134
      nanosec: 17000000
    frame_id: dobby2/odom
  child_frame_id: dobby2/base_footprint
  transform:
    translation:
      x: 2.6460484384624318e-14
      y: 1.984501197974906e-27
      z: 0.0
    rotation:
      x: 0.0
      y: 0.0
      z: 1.3090304648608526e-13
      w: 1.0
---
transforms:
- header:
    stamp:
      sec: 134
      nanosec: 20000000
    frame_id: odom
  child_frame_id: base_footprint
  transform:
    translation:
      x: -4.0372356926169997e-11
      y: 1.3298145412972505e-21
      z: 0.0
    rotation:
      x: 0.0
      y: 0.0
      z: -8.467197555106009e-12
      w: 1.0
---
transforms:
- header:
    stamp:
      sec: 134
      nanosec: 30000000
    frame_id: dobby2/base_link
  child_frame_id: dobby2/left_wheel
  transform:
    translation:
      x: 0.0
      y: 0.2375
      z: 0.0
    rotation:
      x: -0.7071067811865475
      y: -1.2502199040376523e-13
      z: -1.2502199040376528e-13
      w: 0.7071067811865476
- header:
    stamp:
      sec: 134
      nanosec: 30000000
    frame_id: dobby2/base_link
  child_frame_id: dobby2/right_wheel
  transform:
    translation:
      x: 0.0
      y: -0.2375
      z: 0.0
    rotation:
      x: 0.7071067811865475
      y: 3.5181468248614743e-13
      z: -3.5181468248614753e-13
      w: 0.7071067811865476
---
transforms:
- header:
    stamp:
      sec: 134
      nanosec: 37000000
    frame_id: dobby2/odom
  child_frame_id: dobby2/base_footprint
  transform:
    translation:
      x: 2.6460504237480892e-14
      y: 1.984506395572937e-27
      z: 0.0
    rotation:
      x: 0.0
      y: 0.0
      z: 1.30903005161344e-13
      w: 1.0
---
transforms:
- header:
    stamp:
      sec: 134
      nanosec: 40000000
    frame_id: odom
  child_frame_id: base_footprint
  transform:
    translation:
      x: -4.037235692668425e-11
      y: 1.3298145413059591e-21
      z: 0.0
    rotation:
      x: 0.0
      y: 0.0
      z: -8.467197777272816e-12
      w: 1.0
---
transforms:
- header:
    stamp:
      sec: 134
      nanosec: 50000000
    frame_id: base_link
  child_frame_id: left_wheel
  transform:
    translation:
      x: 0.0
      y: 0.2375
      z: 0.0
    rotation:
      x: -0.7071067811865475
      y: -1.57593950372334e-10
      z: -1.5759395037233402e-10
      w: 0.7071067811865476
- header:
    stamp:
      sec: 134
      nanosec: 50000000
    frame_id: base_link
  child_frame_id: right_wheel
  transform:
    translation:
      x: 0.0
      y: -0.2375
      z: 0.0
    rotation:
      x: 0.7071067811865475
      y: -1.8843716908417469e-10
      z: 1.8843716908417474e-10
      w: 0.7071067811865476
---
transforms:
- header:
    stamp:
      sec: 134
      nanosec: 57000000
    frame_id: dobby2/odom
  child_frame_id: dobby2/base_footprint
  transform:
    translation:
      x: 2.646052402309502e-14
      y: 1.98451157556485e-27
      z: 0.0
    rotation:
      x: 0.0
      y: 0.0
      z: 1.3090296544148356e-13
      w: 1.0
---
transforms:
- header:
    stamp:
      sec: 134
      nanosec: 60000000
    frame_id: odom
  child_frame_id: base_footprint
  transform:
    translation:
      x: -4.0372356926197235e-11
      y: 1.3298145412977115e-21
      z: 0.0
    rotation:
      x: 0.0
      y: 0.0
      z: -8.467197998014956e-12
      w: 1.0
---
transforms:
- header:
    stamp:
      sec: 134
      nanosec: 77000000
    frame_id: dobby2/odom
  child_frame_id: dobby2/base_footprint
  transform:
    translation:
      x: 2.6460543139788328e-14
      y: 1.9845165804277652e-27
      z: 0.0
    rotation:
      x: 0.0
      y: 0.0
      z: 1.3090292357659693e-13
      w: 1.0
---
transforms:
- header:
    stamp:
      sec: 134
      nanosec: 80000000
    frame_id: dobby2/base_link
  child_frame_id: dobby2/left_wheel
  transform:
    translation:
      x: 0.0
      y: 0.2375
      z: 0.0
    rotation:
      x: -0.7071067811865475
      y: -1.2502159524501626e-13
      z: -1.2502159524501631e-13
      w: 0.7071067811865476
- header:
    stamp:
      sec: 134
      nanosec: 80000000
    frame_id: dobby2/base_link
  child_frame_id: dobby2/right_wheel
  transform:
    translation:
      x: 0.0
      y: -0.2375
      z: 0.0
    rotation:
      x: 0.7071067811865475
      y: 3.518147055671205e-13
      z: -3.518147055671206e-13
      w: 0.7071067811865476
---
transforms:
- header:
    stamp:
      sec: 134
      nanosec: 80000000
    frame_id: odom
  child_frame_id: base_footprint
  transform:
    translation:
      x: -4.0372356926018254e-11
      y: 1.3298145412946804e-21
      z: 0.0
    rotation:
      x: 0.0
      y: 0.0
      z: -8.467198218885342e-12
      w: 1.0
---
transforms:
- header:
    stamp:
      sec: 134
      nanosec: 97000000
    frame_id: dobby2/odom
  child_frame_id: dobby2/base_footprint
  transform:
    translation:
      x: 2.6460562599251798e-14
      y: 1.984521675028279e-27
      z: 0.0
    rotation:
      x: 0.0
      y: 0.0
      z: 1.3090288287616872e-13
      w: 1.0
---
transforms:
- header:
    stamp:
      sec: 134
      nanosec: 100000000
    frame_id: base_link
  child_frame_id: left_wheel
  transform:
    translation:
      x: 0.0
      y: 0.2375
      z: 0.0
    rotation:
      x: -0.7071067811865475
      y: -1.5759394937079782e-10
      z: -1.5759394937079784e-10
      w: 0.7071067811865476
- header:
    stamp:
      sec: 134
      nanosec: 100000000
    frame_id: base_link
  child_frame_id: right_wheel
  transform:
    translation:
      x: 0.0
      y: -0.2375
      z: 0.0
    rotation:
      x: 0.7071067811865475
      y: -1.8843717009389478e-10
      z: 1.884371700938948e-10
      w: 0.7071067811865476
---
transforms:
- header:
    stamp:
      sec: 134
      nanosec: 100000000
    frame_id: odom
  child_frame_id: base_footprint
  transform:
    translation:
      x: -4.037235692738353e-11
      y: 1.3298145413178008e-21
      z: 0.0
    rotation:
      x: 0.0
      y: 0.0
      z: -8.467198439869462e-12
      w: 1.0
---
transforms:
- header:
    stamp:
      sec: 134
      nanosec: 117000000
    frame_id: dobby2/odom
  child_frame_id: dobby2/base_footprint
  transform:
    translation:
      x: 2.6460580089697857e-14
      y: 1.984526254127243e-27
      z: 0.0
    rotation:
      x: 0.0
      y: 0.0
      z: 1.3090284358507786e-13
      w: 1.0
---
transforms:
- header:
    stamp:
      sec: 134
      nanosec: 120000000
    frame_id: odom
  child_frame_id: base_footprint
  transform:
    translation:
      x: -4.0372356927124014e-11
      y: 1.3298145413134057e-21
      z: 0.0
    rotation:
      x: 0.0
      y: 0.0
      z: -8.467198661749531e-12
      w: 1.0
---
transforms:
- header:
    stamp:
      sec: 134
      nanosec: 130000000
    frame_id: dobby2/base_link
  child_frame_id: dobby2/left_wheel
  transform:
    translation:
      x: 0.0
      y: 0.2375
      z: 0.0
    rotation:
      x: -0.7071067811865475
      y: -1.2502122005653229e-13
      z: -1.250212200565323e-13
      w: 0.7071067811865476
- header:
    stamp:
      sec: 134
      nanosec: 130000000
    frame_id: dobby2/base_link
  child_frame_id: dobby2/right_wheel
  transform:
    translation:
      x: 0.0
      y: -0.2375
      z: 0.0
    rotation:
      x: 0.7071067811865475
      y: 3.5181471295563943e-13
      z: -3.518147129556395e-13
      w: 0.7071067811865476
---
transforms:
- header:
    stamp:
      sec: 134
      nanosec: 137000000
    frame_id: dobby2/odom
  child_frame_id: dobby2/base_footprint
  transform:
    translation:
      x: 2.6460597178753813e-14
      y: 1.9845307281385542e-27
      z: 0.0
    rotation:
      x: 0.0
      y: 0.0
      z: 1.3090280208561533e-13
      w: 1.0
---
transforms:
- header:
    stamp:
      sec: 134
      nanosec: 140000000
    frame_id: odom
  child_frame_id: base_footprint
  transform:
    translation:
      x: -4.037235692463787e-11
      y: 1.3298145412713042e-21
      z: 0.0
    rotation:
      x: 0.0
      y: 0.0
      z: -8.467198881443671e-12
      w: 1.0
---
transforms:
- header:
    stamp:
      sec: 134
      nanosec: 150000000
    frame_id: base_link
  child_frame_id: left_wheel
  transform:
    translation:
      x: 0.0
      y: 0.2375
      z: 0.0
    rotation:
      x: -0.7071067811865475
      y: -1.5759394834988913e-10
      z: -1.5759394834988918e-10
      w: 0.7071067811865476
- header:
    stamp:
      sec: 134
      nanosec: 150000000
    frame_id: base_link
  child_frame_id: right_wheel
  transform:
    translation:
      x: 0.0
      y: -0.2375
      z: 0.0
    rotation:
      x: 0.7071067811865475
      y: -1.8843717108345247e-10
      z: 1.8843717108345252e-10
      w: 0.7071067811865476
---
transforms:
- header:
    stamp:
      sec: 134
      nanosec: 157000000
    frame_id: dobby2/odom
  child_frame_id: dobby2/base_footprint
  transform:
    translation:
      x: 2.646061629445766e-14
      y: 1.9845357327361308e-27
      z: 0.0
    rotation:
      x: 0.0
      y: 0.0
      z: 1.3090276001592145e-13
      w: 1.0
---
transforms:
- header:
    stamp:
      sec: 134
      nanosec: 160000000
    frame_id: odom
  child_frame_id: base_footprint
  transform:
    translation:
      x: -4.0372356923039874e-11
      y: 1.3298145412442434e-21
      z: 0.0
    rotation:
      x: 0.0
      y: 0.0
      z: -8.467199102826731e-12
      w: 1.0
---
transforms:
- header:
    stamp:
      sec: 134
      nanosec: 177000000
    frame_id: dobby2/odom
  child_frame_id: dobby2/base_footprint
  transform:
    translation:
      x: 2.6460633647744615e-14
      y: 1.984540275921758e-27
      z: 0.0
    rotation:
      x: 0.0
      y: 0.0
      z: 1.309027207250577e-13
      w: 1.0
---
transforms:
- header:
    stamp:
      sec: 134
      nanosec: 180000000
    frame_id: odom
  child_frame_id: base_footprint
  transform:
    translation:
      x: -4.037235692280413e-11
      y: 1.329814541240251e-21
      z: 0.0
    rotation:
      x: 0.0
      y: 0.0
      z: -8.467199324616484e-12
      w: 1.0
---
transforms:
- header:
    stamp:
      sec: 134
      nanosec: 180000000
    frame_id: dobby2/base_link
  child_frame_id: dobby2/left_wheel
  transform:
    translation:
      x: 0.0
      y: 0.2375
      z: 0.0
    rotation:
      x: -0.7071067811865475
      y: -1.2502083868994834e-13
      z: -1.250208386899484e-13
      w: 0.7071067811865476
- header:
    stamp:
      sec: 134
      nanosec: 180000000
    frame_id: dobby2/base_link
  child_frame_id: dobby2/right_wheel
  transform:
    translation:
      x: 0.0
      y: -0.2375
      z: 0.0
    rotation:
      x: 0.7071067811865475
      y: 3.5181472311447577e-13
      z: -3.518147231144758e-13
      w: 0.7071067811865476
---
transforms:
- header:
    stamp:
      sec: 134
      nanosec: 197000000
    frame_id: dobby2/odom
  child_frame_id: dobby2/base_footprint
  transform:
    translation:
      x: 2.646065294836851e-14
      y: 1.9845453289293492e-27
      z: 0.0
    rotation:
      x: 0.0
      y: 0.0
      z: 1.3090268102510107e-13
      w: 1.0
---
transforms:
- header:
    stamp:
      sec: 134
      nanosec: 200000000
    frame_id: odom
  child_frame_id: base_footprint
  transform:
    translation:
      x: -4.037235692218929e-11
      y: 1.3298145412298392e-21
      z: 0.0
    rotation:
      x: 0.0
      y: 0.0
      z: -8.467199546389092e-12
      w: 1.0
---
transforms:
- header:
    stamp:
      sec: 134
      nanosec: 200000000
    frame_id: base_link
  child_frame_id: left_wheel
  transform:
    translation:
      x: 0.0
      y: 0.2375
      z: 0.0
    rotation:
      x: -0.7071067811865475
      y: -1.5759394733319417e-10
      z: -1.575939473331942e-10
      w: 0.7071067811865476
- header:
    stamp:
      sec: 134
      nanosec: 200000000
    frame_id: base_link
  child_frame_id: right_wheel
  transform:
    translation:
      x: 0.0
      y: -0.2375
      z: 0.0
    rotation:
      x: 0.7071067811865475
      y: -1.884371720869784e-10
      z: 1.8843717208697845e-10
      w: 0.7071067811865476
---
transforms:
- header:
    stamp:
      sec: 135
      nanosec: 200000000
    frame_id: map
  child_frame_id: odom
  transform:
    translation:
      x: 1.533616476565049e-11
      y: 3.0528212540434873e-22
      z: 0.0
    rotation:
      x: -0.0
      y: -0.0
      z: 1.8836867350358133e-11
      w: 1.0
---
transforms:
- header:
    stamp:
      sec: 134
      nanosec: 217000000
    frame_id: dobby2/odom
  child_frame_id: dobby2/base_footprint
  transform:
    translation:
      x: 2.6460670868757458e-14
      y: 1.9845500205825565e-27
      z: 0.0
    rotation:
      x: 0.0
      y: 0.0
      z: 1.3090264138539033e-13
      w: 1.0
---
transforms:
- header:
    stamp:
      sec: 134
      nanosec: 220000000
    frame_id: odom
  child_frame_id: base_footprint
  transform:
    translation:
      x: -4.0372356922189416e-11
      y: 1.3298145412298414e-21
      z: 0.0
    rotation:
      x: 0.0
      y: 0.0
      z: -8.46719976775445e-12
      w: 1.0
---
transforms:
- header:
    stamp:
      sec: 134
      nanosec: 230000000
    frame_id: dobby2/base_link
  child_frame_id: dobby2/left_wheel
  transform:
    translation:
      x: 0.0
      y: 0.2375
      z: 0.0
    rotation:
      x: -0.7071067811865475
      y: -1.2502045530950874e-13
      z: -1.250204553095088e-13
      w: 0.7071067811865476
- header:
    stamp:
      sec: 134
      nanosec: 230000000
    frame_id: dobby2/base_link
  child_frame_id: dobby2/right_wheel
  transform:
    translation:
      x: 0.0
      y: -0.2375
      z: 0.0
    rotation:
      x: 0.7071067811865475
      y: 3.5181474190682516e-13
      z: -3.5181474190682526e-13
      w: 0.7071067811865476
---
transforms:
- header:
    stamp:
      sec: 134
      nanosec: 237000000
    frame_id: dobby2/odom
  child_frame_id: dobby2/base_footprint
  transform:
    translation:
      x: 2.6460690505586852e-14
      y: 1.984555161607394e-27
      z: 0.0
    rotation:
      x: 0.0
      y: 0.0
      z: 1.3090260043265612e-13
      w: 1.0
---
transforms:
- header:
    stamp:
      sec: 134
      nanosec: 240000000
    frame_id: odom
  child_frame_id: base_footprint
  transform:
    translation:
      x: -4.037235692356127e-11
      y: 1.3298145412530722e-21
      z: 0.0
    rotation:
      x: 0.0
      y: 0.0
      z: -8.467199989836088e-12
      w: 1.0
---
transforms:
- header:
    stamp:
      sec: 134
      nanosec: 250000000
    frame_id: base_link
  child_frame_id: left_wheel
  transform:
    translation:
      x: 0.0
      y: 0.2375
      z: 0.0
    rotation:
      x: -0.7071067811865475
      y: -1.5759394633130994e-10
      z: -1.5759394633130996e-10
      w: 0.7071067811865476
- header:
    stamp:
      sec: 134
      nanosec: 250000000
    frame_id: base_link
  child_frame_id: right_wheel
  transform:
    translation:
      x: 0.0
      y: -0.2375
      z: 0.0
    rotation:
      x: 0.7071067811865475
      y: -1.884371730985655e-10
      z: 1.8843717309856554e-10
      w: 0.7071067811865476
---
transforms:
- header:
    stamp:
      sec: 134
      nanosec: 257000000
    frame_id: dobby2/odom
  child_frame_id: dobby2/base_footprint
  transform:
    translation:
      x: 2.6460708066707218e-14
      y: 1.984559759199283e-27
      z: 0.0
    rotation:
      x: 0.0
      y: 0.0
      z: 1.309025588994495e-13
      w: 1.0
---
transforms:
- header:
    stamp:
      sec: 134
      nanosec: 260000000
    frame_id: odom
  child_frame_id: base_footprint
  transform:
    translation:
      x: -4.0372356923454266e-11
      y: 1.3298145412512603e-21
      z: 0.0
    rotation:
      x: 0.0
      y: 0.0
      z: -8.467200208814925e-12
      w: 1.0
---
transforms:
- header:
    stamp:
      sec: 134
      nanosec: 277000000
    frame_id: dobby2/odom
  child_frame_id: dobby2/base_footprint
  transform:
    translation:
      x: 2.64607277469692e-14
      y: 1.9845649115917587e-27
      z: 0.0
    rotation:
      x: 0.0
      y: 0.0
      z: 1.309025167003633e-13
      w: 1.0
---
transforms:
- header:
    stamp:
      sec: 134
      nanosec: 280000000
    frame_id: odom
  child_frame_id: base_footprint
  transform:
    translation:
      x: -4.0372356922959974e-11
      y: 1.3298145412428898e-21
      z: 0.0
    rotation:
      x: 0.0
      y: 0.0
      z: -8.4672004302099e-12
      w: 1.0
---
transforms:
- header:
    stamp:
      sec: 134
      nanosec: 280000000
    frame_id: dobby2/base_link
  child_frame_id: dobby2/left_wheel
  transform:
    translation:
      x: 0.0
      y: 0.2375
      z: 0.0
    rotation:
      x: -0.7071067811865475
      y: -1.2502006131442382e-13
      z: -1.2502006131442387e-13
      w: 0.7071067811865476
- header:
    stamp:
      sec: 134
      nanosec: 280000000
    frame_id: dobby2/base_link
  child_frame_id: dobby2/right_wheel
  transform:
    translation:
      x: 0.0
      y: -0.2375
      z: 0.0
    rotation:
      x: 0.7071067811865475
      y: 3.5181475720305284e-13
      z: -3.5181475720305294e-13
      w: 0.7071067811865476
---
transforms:
- header:
    stamp:
      sec: 134
      nanosec: 297000000
    frame_id: dobby2/odom
  child_frame_id: dobby2/base_footprint
  transform:
    translation:
      x: 2.6460746787990612e-14
      y: 1.984569896626254e-27
      z: 0.0
    rotation:
      x: 0.0
      y: 0.0
      z: 1.309024751915997e-13
      w: 1.0
---
transforms:
- header:
    stamp:
      sec: 134
      nanosec: 300000000
    frame_id: odom
  child_frame_id: base_footprint
  transform:
    translation:
      x: -4.037235692276776e-11
      y: 1.3298145412396343e-21
      z: 0.0
    rotation:
      x: 0.0
      y: 0.0
      z: -8.467200651535963e-12
      w: 1.0
---
transforms:
- header:
    stamp:
      sec: 134
      nanosec: 300000000
    frame_id: base_link
  child_frame_id: left_wheel
  transform:
    translation:
      x: 0.0
      y: 0.2375
      z: 0.0
    rotation:
      x: -0.7071067811865475
      y: -1.575939453228298e-10
      z: -1.5759394532282984e-10
      w: 0.7071067811865476
- header:
    stamp:
      sec: 134
      nanosec: 300000000
    frame_id: base_link
  child_frame_id: right_wheel
  transform:
    translation:
      x: 0.0
      y: -0.2375
      z: 0.0
    rotation:
      x: 0.7071067811865475
      y: -1.8843717410230082e-10
      z: 1.8843717410230087e-10
      w: 0.7071067811865476
---
transforms:
- header:
    stamp:
      sec: 134
      nanosec: 317000000
    frame_id: dobby2/odom
  child_frame_id: dobby2/base_footprint
  transform:
    translation:
      x: 2.6460765982960364e-14
      y: 1.984574921963572e-27
      z: 0.0
    rotation:
      x: 0.0
      y: 0.0
      z: 1.3090243369123245e-13
      w: 1.0
---
transforms:
- header:
    stamp:
      sec: 134
      nanosec: 320000000
    frame_id: odom
  child_frame_id: base_footprint
  transform:
    translation:
      x: -4.037235692234401e-11
      y: 1.3298145412324586e-21
      z: 0.0
    rotation:
      x: 0.0
      y: 0.0
      z: -8.467200873715999e-12
      w: 1.0
---
transforms:
- header:
    stamp:
      sec: 134
      nanosec: 330000000
    frame_id: dobby2/base_link
  child_frame_id: dobby2/left_wheel
  transform:
    translation:
      x: 0.0
      y: 0.2375
      z: 0.0
    rotation:
      x: -0.7071067811865475
      y: -1.250196676139566e-13
      z: -1.2501966761395663e-13
      w: 0.7071067811865476
- header:
    stamp:
      sec: 134
      nanosec: 330000000
    frame_id: dobby2/base_link
  child_frame_id: dobby2/right_wheel
  transform:
    translation:
      x: 0.0
      y: -0.2375
      z: 0.0
    rotation:
      x: 0.7071067811865475
      y: 3.518147721583681e-13
      z: -3.5181477215836815e-13
      w: 0.7071067811865476
---
transforms:
- header:
    stamp:
      sec: 134
      nanosec: 337000000
    frame_id: dobby2/odom
  child_frame_id: dobby2/base_footprint
  transform:
    translation:
      x: 2.646078570114196e-14
      y: 1.9845800842786943e-27
      z: 0.0
    rotation:
      x: 0.0
      y: 0.0
      z: 1.3090239243561712e-13
      w: 1.0
---
transforms:
- header:
    stamp:
      sec: 134
      nanosec: 340000000
    frame_id: odom
  child_frame_id: base_footprint
  transform:
    translation:
      x: -4.037235692080138e-11
      y: 1.3298145412063355e-21
      z: 0.0
    rotation:
      x: 0.0
      y: 0.0
      z: -8.467201095367019e-12
      w: 1.0
---
transforms:
- header:
    stamp:
      sec: 134
      nanosec: 350000000
    frame_id: base_link
  child_frame_id: left_wheel
  transform:
    translation:
      x: 0.0
      y: 0.2375
      z: 0.0
    rotation:
      x: -0.7071067811865475
      y: -1.5759394429969082e-10
      z: -1.5759394429969087e-10
      w: 0.7071067811865476
- header:
    stamp:
      sec: 134
      nanosec: 350000000
    frame_id: base_link
  child_frame_id: right_wheel
  transform:
    translation:
      x: 0.0
      y: -0.2375
      z: 0.0
    rotation:
      x: 0.7071067811865475
      y: -1.8843717510003465e-10
      z: 1.884371751000347e-10
      w: 0.7071067811865476
---
transforms:
- header:
    stamp:
      sec: 134
      nanosec: 357000000
    frame_id: dobby2/odom
  child_frame_id: dobby2/base_footprint
  transform:
    translation:
      x: 2.6460806149798042e-14
      y: 1.9845854378337897e-27
      z: 0.0
    rotation:
      x: 0.0
      y: 0.0
      z: 1.3090234886446113e-13
      w: 1.0
---
transforms:
- header:
    stamp:
      sec: 134
      nanosec: 360000000
    frame_id: odom
  child_frame_id: base_footprint
  transform:
    translation:
      x: -4.0372356920159353e-11
      y: 1.3298145411954632e-21
      z: 0.0
    rotation:
      x: 0.0
      y: 0.0
      z: -8.467201317603186e-12
      w: 1.0
---
transforms:
- header:
    stamp:
      sec: 134
      nanosec: 377000000
    frame_id: dobby2/odom
  child_frame_id: dobby2/base_footprint
  transform:
    translation:
      x: 2.6460824315512844e-14
      y: 1.9845901937025e-27
      z: 0.0
    rotation:
      x: 0.0
      y: 0.0
      z: 1.3090230750087702e-13
      w: 1.0
---
transforms:
- header:
    stamp:
      sec: 134
      nanosec: 380000000
    frame_id: odom
  child_frame_id: base_footprint
  transform:
    translation:
      x: -4.037235692038907e-11
      y: 1.3298145411993529e-21
      z: 0.0
    rotation:
      x: 0.0
      y: 0.0
      z: -8.467201539089137e-12
      w: 1.0
---
transforms:
- header:
    stamp:
      sec: 134
      nanosec: 380000000
    frame_id: dobby2/base_link
  child_frame_id: dobby2/left_wheel
  transform:
    translation:
      x: 0.0
      y: 0.2375
      z: 0.0
    rotation:
      x: -0.7071067811865475
      y: -1.2501926867224862e-13
      z: -1.2501926867224867e-13
      w: 0.7071067811865476
- header:
    stamp:
      sec: 134
      nanosec: 380000000
    frame_id: dobby2/base_link
  child_frame_id: dobby2/right_wheel
  transform:
    translation:
      x: 0.0
      y: -0.2375
      z: 0.0
    rotation:
      x: 0.7071067811865475
      y: 3.5181478728671976e-13
      z: -3.518147872867198e-13
      w: 0.7071067811865476
---
transforms:
- header:
    stamp:
      sec: 134
      nanosec: 397000000
    frame_id: dobby2/odom
  child_frame_id: dobby2/base_footprint
  transform:
    translation:
      x: 2.6460842532583485e-14
      y: 1.9845949630149517e-27
      z: 0.0
    rotation:
      x: 0.0
      y: 0.0
      z: 1.3090226673222984e-13
      w: 1.0
---
transforms:
- header:
    stamp:
      sec: 134
      nanosec: 400000000
    frame_id: base_link
  child_frame_id: left_wheel
  transform:
    translation:
      x: 0.0
      y: 0.2375
      z: 0.0
    rotation:
      x: -0.7071067811865475
      y: -1.5759394329074427e-10
      z: -1.5759394329074432e-10
      w: 0.7071067811865476
- header:
    stamp:
      sec: 134
      nanosec: 400000000
    frame_id: base_link
  child_frame_id: right_wheel
  transform:
    translation:
      x: 0.0
      y: -0.2375
      z: 0.0
    rotation:
      x: 0.7071067811865475
      y: -1.8843717610909917e-10
      z: 1.884371761090992e-10
      w: 0.7071067811865476
---
transforms:
- header:
    stamp:
      sec: 134
      nanosec: 400000000
    frame_id: odom
  child_frame_id: base_footprint
  transform:
    translation:
      x: -4.037235691981745e-11
      y: 1.329814541189673e-21
      z: 0.0
    rotation:
      x: 0.0
      y: 0.0
      z: -8.467201760305741e-12
      w: 1.0
---
transforms:
- header:
    stamp:
      sec: 135
      nanosec: 400000000
    frame_id: map
  child_frame_id: odom
  transform:
    translation:
      x: 1.533616476565049e-11
      y: 3.0528212540434873e-22
      z: 0.0
    rotation:
      x: -0.0
      y: -0.0
      z: 1.8836867350358133e-11
      w: 1.0
---
transforms:
- header:
    stamp:
      sec: 134
      nanosec: 417000000
    frame_id: dobby2/odom
  child_frame_id: dobby2/base_footprint
  transform:
    translation:
      x: 2.6460861300949023e-14
      y: 1.9845998766573715e-27
      z: 0.0
    rotation:
      x: 0.0
      y: 0.0
      z: 1.309022274548397e-13
      w: 1.0
---
transforms:
- header:
    stamp:
      sec: 134
      nanosec: 420000000
    frame_id: odom
  child_frame_id: base_footprint
  transform:
    translation:
      x: -4.037235691970106e-11
      y: 1.3298145411877017e-21
      z: 0.0
    rotation:
      x: 0.0
      y: 0.0
      z: -8.46720198224143e-12
      w: 1.0
---
transforms:
- header:
    stamp:
      sec: 134
      nanosec: 430000000
    frame_id: dobby2/base_link
  child_frame_id: dobby2/left_wheel
  transform:
    translation:
      x: 0.0
      y: 0.2375
      z: 0.0
    rotation:
      x: -0.7071067811865475
      y: -1.2501888951425469e-13
      z: -1.250188895142547e-13
      w: 0.7071067811865476
- header:
    stamp:
      sec: 134
      nanosec: 430000000
    frame_id: dobby2/base_link
  child_frame_id: dobby2/right_wheel
  transform:
    translation:
      x: 0.0
      y: -0.2375
      z: 0.0
    rotation:
      x: 0.7071067811865475
      y: 3.5181480087870904e-13
      z: -3.518148008787091e-13
      w: 0.7071067811865476
---
transforms:
- header:
    stamp:
      sec: 134
      nanosec: 437000000
    frame_id: dobby2/odom
  child_frame_id: dobby2/base_footprint
  transform:
    translation:
      x: 2.6460879833186934e-14
      y: 1.984604728479057e-27
      z: 0.0
    rotation:
      x: 0.0
      y: 0.0
      z: 1.3090218690027904e-13
      w: 1.0
---
transforms:
- header:
    stamp:
      sec: 134
      nanosec: 440000000
    frame_id: odom
  child_frame_id: base_footprint
  transform:
    translation:
      x: -4.037235692000502e-11
      y: 1.329814541192849e-21
      z: 0.0
    rotation:
      x: 0.0
      y: 0.0
      z: -8.467202202125742e-12
      w: 1.0
---
transforms:
- header:
    stamp:
      sec: 134
      nanosec: 450000000
    frame_id: base_link
  child_frame_id: left_wheel
  transform:
    translation:
      x: 0.0
      y: 0.2375
      z: 0.0
    rotation:
      x: -0.7071067811865475
      y: -1.5759394228348197e-10
      z: -1.5759394228348202e-10
      w: 0.7071067811865476
- header:
    stamp:
      sec: 134
      nanosec: 450000000
    frame_id: base_link
  child_frame_id: right_wheel
  transform:
    translation:
      x: 0.0
      y: -0.2375
      z: 0.0
    rotation:
      x: 0.7071067811865475
      y: -1.8843717711287452e-10
      z: 1.8843717711287455e-10
      w: 0.7071067811865476
---
transforms:
- header:
    stamp:
      sec: 134
      nanosec: 457000000
    frame_id: dobby2/odom
  child_frame_id: dobby2/base_footprint
  transform:
    translation:
      x: 2.6460897896230325e-14
      y: 1.9846094574621025e-27
      z: 0.0
    rotation:
      x: 0.0
      y: 0.0
      z: 1.3090214722107917e-13
      w: 1.0
---
transforms:
- header:
    stamp:
      sec: 134
      nanosec: 460000000
    frame_id: odom
  child_frame_id: base_footprint
  transform:
    translation:
      x: -4.0372356919236614e-11
      y: 1.3298145411798363e-21
      z: 0.0
    rotation:
      x: 0.0
      y: 0.0
      z: -8.467202422869085e-12
      w: 1.0
---
transforms:
- header:
    stamp:
      sec: 134
      nanosec: 477000000
    frame_id: dobby2/odom
  child_frame_id: dobby2/base_footprint
  transform:
    translation:
      x: 2.646091649240049e-14
      y: 1.9846143260185538e-27
      z: 0.0
    rotation:
      x: 0.0
      y: 0.0
      z: 1.3090210713948829e-13
      w: 1.0
---
transforms:
- header:
    stamp:
      sec: 134
      nanosec: 480000000
    frame_id: odom
  child_frame_id: base_footprint
  transform:
    translation:
      x: -4.037235691835074e-11
      y: 1.3298145411648347e-21
      z: 0.0
    rotation:
      x: 0.0
      y: 0.0
      z: -8.467202644417864e-12
      w: 1.0
---
transforms:
- header:
    stamp:
      sec: 134
      nanosec: 480000000
    frame_id: dobby2/base_link
  child_frame_id: dobby2/left_wheel
  transform:
    translation:
      x: 0.0
      y: 0.2375
      z: 0.0
    rotation:
      x: -0.7071067811865475
      y: -1.2501850817129823e-13
      z: -1.2501850817129828e-13
      w: 0.7071067811865476
- header:
    stamp:
      sec: 134
      nanosec: 480000000
    frame_id: dobby2/base_link
  child_frame_id: dobby2/right_wheel
  transform:
    translation:
      x: 0.0
      y: -0.2375
      z: 0.0
    rotation:
      x: 0.7071067811865475
      y: 3.518148186207082e-13
      z: -3.518148186207083e-13
      w: 0.7071067811865476
---
transforms:
- header:
    stamp:
      sec: 134
      nanosec: 497000000
    frame_id: dobby2/odom
  child_frame_id: dobby2/base_footprint
  transform:
    translation:
      x: 2.64609347936036e-14
      y: 1.984619117349953e-27
      z: 0.0
    rotation:
      x: 0.0
      y: 0.0
      z: 1.3090206585912706e-13
      w: 1.0
---
transforms:
- header:
    stamp:
      sec: 134
      nanosec: 500000000
    frame_id: odom
  child_frame_id: base_footprint
  transform:
    translation:
      x: -4.0372356916554507e-11
      y: 1.3298145411344169e-21
      z: 0.0
    rotation:
      x: 0.0
      y: 0.0
      z: -8.467202866515288e-12
      w: 1.0
---
transforms:
- header:
    stamp:
      sec: 134
      nanosec: 500000000
    frame_id: base_link
  child_frame_id: left_wheel
  transform:
    translation:
      x: 0.0
      y: 0.2375
      z: 0.0
    rotation:
      x: -0.7071067811865475
      y: -1.5759394126198218e-10
      z: -1.575939412619822e-10
      w: 0.7071067811865476
- header:
    stamp:
      sec: 134
      nanosec: 500000000
    frame_id: base_link
  child_frame_id: right_wheel
  transform:
    translation:
      x: 0.0
      y: -0.2375
      z: 0.0
    rotation:
      x: 0.7071067811865475
      y: -1.884371781098948e-10
      z: 1.8843717810989486e-10
      w: 0.7071067811865476
---
transforms:
- header:
    stamp:
      sec: 134
      nanosec: 517000000
    frame_id: dobby2/odom
  child_frame_id: dobby2/base_footprint
  transform:
    translation:
      x: 2.6460952918063274e-14
      y: 1.9846238624077183e-27
      z: 0.0
    rotation:
      x: 0.0
      y: 0.0
      z: 1.3090202659986051e-13
      w: 1.0
---
transforms:
- header:
    stamp:
      sec: 134
      nanosec: 520000000
    frame_id: odom
  child_frame_id: base_footprint
  transform:
    translation:
      x: -4.037235691648376e-11
      y: 1.3298145411332188e-21
      z: 0.0
    rotation:
      x: 0.0
      y: 0.0
      z: -8.467203086595721e-12
      w: 1.0
---
transforms:
- header:
    stamp:
      sec: 134
      nanosec: 530000000
    frame_id: dobby2/base_link
  child_frame_id: dobby2/left_wheel
  transform:
    translation:
      x: 0.0
      y: 0.2375
      z: 0.0
    rotation:
      x: -0.7071067811865475
      y: -1.2501813086875495e-13
      z: -1.2501813086875497e-13
      w: 0.7071067811865476
- header:
    stamp:
      sec: 134
      nanosec: 530000000
    frame_id: dobby2/base_link
  child_frame_id: dobby2/right_wheel
  transform:
    translation:
      x: 0.0
      y: -0.2375
      z: 0.0
    rotation:
      x: 0.7071067811865475
      y: 3.5181483054681853e-13
      z: -3.5181483054681863e-13
      w: 0.7071067811865476
---
transforms:
- header:
    stamp:
      sec: 134
      nanosec: 537000000
    frame_id: dobby2/odom
  child_frame_id: dobby2/base_footprint
  transform:
    translation:
      x: 2.646097211687095e-14
      y: 1.9846288887325925e-27
      z: 0.0
    rotation:
      x: 0.0
      y: 0.0
      z: 1.3090198717221422e-13
      w: 1.0
---
transforms:
- header:
    stamp:
      sec: 134
      nanosec: 540000000
    frame_id: odom
  child_frame_id: base_footprint
  transform:
    translation:
      x: -4.0372356915667614e-11
      y: 1.329814541119397e-21
      z: 0.0
    rotation:
      x: 0.0
      y: 0.0
      z: -8.467203306578193e-12
      w: 1.0
---
transforms:
- header:
    stamp:
      sec: 134
      nanosec: 550000000
    frame_id: base_link
  child_frame_id: left_wheel
  transform:
    translation:
      x: 0.0
      y: 0.2375
      z: 0.0
    rotation:
      x: -0.7071067811865475
      y: -1.575939402569993e-10
      z: -1.5759394025699932e-10
      w: 0.7071067811865476
- header:
    stamp:
      sec: 134
      nanosec: 550000000
    frame_id: base_link
  child_frame_id: right_wheel
  transform:
    translation:
      x: 0.0
      y: -0.2375
      z: 0.0
    rotation:
      x: 0.7071067811865475
      y: -1.8843717910712124e-10
      z: 1.8843717910712126e-10
      w: 0.7071067811865476
---
transforms:
- header:
    stamp:
      sec: 134
      nanosec: 557000000
    frame_id: dobby2/odom
  child_frame_id: dobby2/base_footprint
  transform:
    translation:
      x: 2.646099344303318e-14
      y: 1.9846344720057434e-27
      z: 0.0
    rotation:
      x: 0.0
      y: 0.0
      z: 1.3090194466479111e-13
      w: 1.0
---
transforms:
- header:
    stamp:
      sec: 134
      nanosec: 560000000
    frame_id: odom
  child_frame_id: base_footprint
  transform:
    translation:
      x: -4.037235691539574e-11
      y: 1.3298145411147933e-21
      z: 0.0
    rotation:
      x: 0.0
      y: 0.0
      z: -8.4672035260457e-12
      w: 1.0
---
transforms:
- header:
    stamp:
      sec: 134
      nanosec: 577000000
    frame_id: dobby2/odom
  child_frame_id: dobby2/base_footprint
  transform:
    translation:
      x: 2.6461013344408397e-14
      y: 1.9846396822623276e-27
      z: 0.0
    rotation:
      x: 0.0
      y: 0.0
      z: 1.3090190381978235e-13
      w: 1.0
---
transforms:
- header:
    stamp:
      sec: 134
      nanosec: 580000000
    frame_id: odom
  child_frame_id: base_footprint
  transform:
    translation:
      x: -4.037235691339619e-11
      y: 1.3298145410809315e-21
      z: 0.0
    rotation:
      x: 0.0
      y: 0.0
      z: -8.467203747443777e-12
      w: 1.0
---
transforms:
- header:
    stamp:
      sec: 134
      nanosec: 580000000
    frame_id: dobby2/base_link
  child_frame_id: dobby2/left_wheel
  transform:
    translation:
      x: 0.0
      y: 0.2375
      z: 0.0
    rotation:
      x: -0.7071067811865475
      y: -1.2501772475688052e-13
      z: -1.2501772475688057e-13
      w: 0.7071067811865476
- header:
    stamp:
      sec: 134
      nanosec: 580000000
    frame_id: dobby2/base_link
  child_frame_id: dobby2/right_wheel
  transform:
    translation:
      x: 0.0
      y: -0.2375
      z: 0.0
    rotation:
      x: 0.7071067811865475
      y: 3.5181486202078497e-13
      z: -3.51814862020785e-13
      w: 0.7071067811865476
---
transforms:
- header:
    stamp:
      sec: 134
      nanosec: 597000000
    frame_id: dobby2/odom
  child_frame_id: dobby2/base_footprint
  transform:
    translation:
      x: 2.6461032341828294e-14
      y: 1.984644655858432e-27
      z: 0.0
    rotation:
      x: 0.0
      y: 0.0
      z: 1.3090186440738867e-13
      w: 1.0
---
transforms:
- header:
    stamp:
      sec: 134
      nanosec: 600000000
    frame_id: base_link
  child_frame_id: left_wheel
  transform:
    translation:
      x: 0.0
      y: 0.2375
      z: 0.0
    rotation:
      x: -0.7071067811865475
      y: -1.575939392338481e-10
      z: -1.5759393923384812e-10
      w: 0.7071067811865476
- header:
    stamp:
      sec: 134
      nanosec: 600000000
    frame_id: base_link
  child_frame_id: right_wheel
  transform:
    translation:
      x: 0.0
      y: -0.2375
      z: 0.0
    rotation:
      x: 0.7071067811865475
      y: -1.8843718009850816e-10
      z: 1.884371800985082e-10
      w: 0.7071067811865476
---
transforms:
- header:
    stamp:
      sec: 134
      nanosec: 600000000
    frame_id: odom
  child_frame_id: base_footprint
  transform:
    translation:
      x: -4.0372356911943543e-11
      y: 1.3298145410563319e-21
      z: 0.0
    rotation:
      x: 0.0
      y: 0.0
      z: -8.467203969208086e-12
      w: 1.0
---
transforms:
- header:
    stamp:
      sec: 135
      nanosec: 600000000
    frame_id: map
  child_frame_id: odom
  transform:
    translation:
      x: 1.533616476565049e-11
      y: 3.0528212540434873e-22
      z: 0.0
    rotation:
      x: -0.0
      y: -0.0
      z: 1.8836867350358133e-11
      w: 1.0
---
transforms:
- header:
    stamp:
      sec: 134
      nanosec: 617000000
    frame_id: dobby2/odom
  child_frame_id: dobby2/base_footprint
  transform:
    translation:
      x: 2.6461051876906187e-14
      y: 1.9846497702138444e-27
      z: 0.0
    rotation:
      x: 0.0
      y: 0.0
      z: 1.3090182400924505e-13
      w: 1.0
---
transforms:
- header:
    stamp:
      sec: 134
      nanosec: 620000000
    frame_id: odom
  child_frame_id: base_footprint
  transform:
    translation:
      x: -4.037235691089574e-11
      y: 1.3298145410385881e-21
      z: 0.0
    rotation:
      x: 0.0
      y: 0.0
      z: -8.467204189664203e-12
      w: 1.0
---
transforms:
- header:
    stamp:
      sec: 134
      nanosec: 630000000
    frame_id: dobby2/base_link
  child_frame_id: dobby2/left_wheel
  transform:
    translation:
      x: 0.0
      y: 0.2375
      z: 0.0
    rotation:
      x: -0.7071067811865475
      y: -1.2501733668769297e-13
      z: -1.2501733668769302e-13
      w: 0.7071067811865476
- header:
    stamp:
      sec: 134
      nanosec: 630000000
    frame_id: dobby2/base_link
  child_frame_id: dobby2/right_wheel
  transform:
    translation:
      x: 0.0
      y: -0.2375
      z: 0.0
    rotation:
      x: 0.7071067811865475
      y: 3.518148853894367e-13
      z: -3.5181488538943674e-13
      w: 0.7071067811865476
---
transforms:
- header:
    stamp:
      sec: 134
      nanosec: 637000000
    frame_id: dobby2/odom
  child_frame_id: dobby2/base_footprint
  transform:
    translation:
      x: 2.6461071496876058e-14
      y: 1.9846549067926985e-27
      z: 0.0
    rotation:
      x: 0.0
      y: 0.0
      z: 1.3090178337068997e-13
      w: 1.0
---
transforms:
- header:
    stamp:
      sec: 134
      nanosec: 640000000
    frame_id: odom
  child_frame_id: base_footprint
  transform:
    translation:
      x: -4.037235691051176e-11
      y: 1.3298145410320859e-21
      z: 0.0
    rotation:
      x: 0.0
      y: 0.0
      z: -8.467204411549691e-12
      w: 1.0
---
transforms:
- header:
    stamp:
      sec: 134
      nanosec: 650000000
    frame_id: base_link
  child_frame_id: left_wheel
  transform:
    translation:
      x: 0.0
      y: 0.2375
      z: 0.0
    rotation:
      x: -0.7071067811865475
      y: -1.5759393821740422e-10
      z: -1.5759393821740424e-10
      w: 0.7071067811865476
- header:
    stamp:
      sec: 134
      nanosec: 650000000
    frame_id: base_link
  child_frame_id: right_wheel
  transform:
    translation:
      x: 0.0
      y: -0.2375
      z: 0.0
    rotation:
      x: 0.7071067811865475
      y: -1.8843718109752973e-10
      z: 1.8843718109752978e-10
      w: 0.7071067811865476
---
transforms:
- header:
    stamp:
      sec: 134
      nanosec: 657000000
    frame_id: dobby2/odom
  child_frame_id: dobby2/base_footprint
  transform:
    translation:
      x: 2.646108909510349e-14
      y: 1.98465951407069e-27
      z: 0.0
    rotation:
      x: 0.0
      y: 0.0
      z: 1.3090174212961798e-13
      w: 1.0
---
transforms:
- header:
    stamp:
      sec: 134
      nanosec: 660000000
    frame_id: odom
  child_frame_id: base_footprint
  transform:
    translation:
      x: -4.037235691028819e-11
      y: 1.3298145410282996e-21
      z: 0.0
    rotation:
      x: 0.0
      y: 0.0
      z: -8.46720463351961e-12
      w: 1.0
---
transforms:
- header:
    stamp:
      sec: 134
      nanosec: 677000000
    frame_id: dobby2/odom
  child_frame_id: dobby2/base_footprint
  transform:
    translation:
      x: 2.646110810273521e-14
      y: 1.984664490334096e-27
      z: 0.0
    rotation:
      x: 0.0
      y: 0.0
      z: 1.3090170099946473e-13
      w: 1.0
---
transforms:
- header:
    stamp:
      sec: 134
      nanosec: 680000000
    frame_id: odom
  child_frame_id: base_footprint
  transform:
    translation:
      x: -4.0372356907968113e-11
      y: 1.32981454098901e-21
      z: 0.0
    rotation:
      x: 0.0
      y: 0.0
      z: -8.467204853134295e-12
      w: 1.0
---
transforms:
- header:
    stamp:
      sec: 134
      nanosec: 680000000
    frame_id: dobby2/base_link
  child_frame_id: dobby2/left_wheel
  transform:
    translation:
      x: 0.0
      y: 0.2375
      z: 0.0
    rotation:
      x: -0.7071067811865475
      y: -1.2501695042435215e-13
      z: -1.2501695042435217e-13
      w: 0.7071067811865476
- header:
    stamp:
      sec: 134
      nanosec: 680000000
    frame_id: dobby2/base_link
  child_frame_id: dobby2/right_wheel
  transform:
    translation:
      x: 0.0
      y: -0.2375
      z: 0.0
    rotation:
      x: 0.7071067811865475
      y: 3.5181489687968767e-13
      z: -3.5181489687968777e-13
      w: 0.7071067811865476
---
transforms:
- header:
    stamp:
      sec: 134
      nanosec: 697000000
    frame_id: dobby2/odom
  child_frame_id: dobby2/base_footprint
  transform:
    translation:
      x: 2.64611257427049e-14
      y: 1.984669108537452e-27
      z: 0.0
    rotation:
      x: 0.0
      y: 0.0
      z: 1.309016603457588e-13
      w: 1.0
---
transforms:
- header:
    stamp:
      sec: 134
      nanosec: 700000000
    frame_id: odom
  child_frame_id: base_footprint
  transform:
    translation:
      x: -4.03723569069798e-11
      y: 1.3298145409722731e-21
      z: 0.0
    rotation:
      x: 0.0
      y: 0.0
      z: -8.467205074774909e-12
      w: 1.0
---
transforms:
- header:
    stamp:
      sec: 134
      nanosec: 700000000
    frame_id: base_link
  child_frame_id: left_wheel
  transform:
    translation:
      x: 0.0
      y: 0.2375
      z: 0.0
    rotation:
      x: -0.7071067811865475
      y: -1.5759393719896753e-10
      z: -1.5759393719896758e-10
      w: 0.7071067811865476
- header:
    stamp:
      sec: 134
      nanosec: 700000000
    frame_id: base_link
  child_frame_id: right_wheel
  transform:
    translation:
      x: 0.0
      y: -0.2375
      z: 0.0
    rotation:
      x: 0.7071067811865475
      y: -1.8843718209084414e-10
      z: 1.8843718209084417e-10
      w: 0.7071067811865476
---
transforms:
- header:
    stamp:
      sec: 134
      nanosec: 717000000
    frame_id: dobby2/odom
  child_frame_id: dobby2/base_footprint
  transform:
    translation:
      x: 2.6461142734687468e-14
      y: 1.984673557094206e-27
      z: 0.0
    rotation:
      x: 0.0
      y: 0.0
      z: 1.3090161952928063e-13
      w: 1.0
---
transforms:
- header:
    stamp:
      sec: 134
      nanosec: 720000000
    frame_id: odom
  child_frame_id: base_footprint
  transform:
    translation:
      x: -4.037235690716808e-11
      y: 1.3298145409754616e-21
      z: 0.0
    rotation:
      x: 0.0
      y: 0.0
      z: -8.467205297431636e-12
      w: 1.0
---
transforms:
- header:
    stamp:
      sec: 134
      nanosec: 730000000
    frame_id: dobby2/base_link
  child_frame_id: dobby2/left_wheel
  transform:
    translation:
      x: 0.0
      y: 0.2375
      z: 0.0
    rotation:
      x: -0.7071067811865475
      y: -1.250165745169294e-13
      z: -1.2501657451692945e-13
      w: 0.7071067811865476
- header:
    stamp:
      sec: 134
      nanosec: 730000000
    frame_id: dobby2/base_link
  child_frame_id: dobby2/right_wheel
  transform:
    translation:
      x: 0.0
      y: -0.2375
      z: 0.0
    rotation:
      x: 0.7071067811865475
      y: 3.5181490631251873e-13
      z: -3.518149063125188e-13
      w: 0.7071067811865476
---
transforms:
- header:
    stamp:
      sec: 134
      nanosec: 737000000
    frame_id: dobby2/odom
  child_frame_id: dobby2/base_footprint
  transform:
    translation:
      x: 2.6461161363215644e-14
      y: 1.9846784341025157e-27
      z: 0.0
    rotation:
      x: 0.0
      y: 0.0
      z: 1.309015803076146e-13
      w: 1.0
---
transforms:
- header:
    stamp:
      sec: 134
      nanosec: 740000000
    frame_id: odom
  child_frame_id: base_footprint
  transform:
    translation:
      x: -4.0372356906218517e-11
      y: 1.329814540959381e-21
      z: 0.0
    rotation:
      x: 0.0
      y: 0.0
      z: -8.467205518294138e-12
      w: 1.0
---
transforms:
- header:
    stamp:
      sec: 134
      nanosec: 750000000
    frame_id: base_link
  child_frame_id: left_wheel
  transform:
    translation:
      x: 0.0
      y: 0.2375
      z: 0.0
    rotation:
      x: -0.7071067811865475
      y: -1.5759393618464444e-10
      z: -1.5759393618464446e-10
      w: 0.7071067811865476
- header:
    stamp:
      sec: 134
      nanosec: 750000000
    frame_id: base_link
  child_frame_id: right_wheel
  transform:
    translation:
      x: 0.0
      y: -0.2375
      z: 0.0
    rotation:
      x: 0.7071067811865475
      y: -1.8843718309599026e-10
      z: 1.8843718309599028e-10
      w: 0.7071067811865476
---
transforms:
- header:
    stamp:
      sec: 134
      nanosec: 757000000
    frame_id: dobby2/odom
  child_frame_id: dobby2/base_footprint
  transform:
    translation:
      x: 2.6461179484529072e-14
      y: 1.984683178318874e-27
      z: 0.0
    rotation:
      x: 0.0
      y: 0.0
      z: 1.3090153924195965e-13
      w: 1.0
---
transforms:
- header:
    stamp:
      sec: 134
      nanosec: 760000000
    frame_id: odom
  child_frame_id: base_footprint
  transform:
    translation:
      x: -4.0372356905660363e-11
      y: 1.3298145409499293e-21
      z: 0.0
    rotation:
      x: 0.0
      y: 0.0
      z: -8.467205740982764e-12
      w: 1.0
---
transforms:
- header:
    stamp:
      sec: 134
      nanosec: 777000000
    frame_id: dobby2/odom
  child_frame_id: dobby2/base_footprint
  transform:
    translation:
      x: 2.6461196646637577e-14
      y: 1.9846876714110622e-27
      z: 0.0
    rotation:
      x: 0.0
      y: 0.0
      z: 1.309014988934671e-13
      w: 1.0
---
transforms:
- header:
    stamp:
      sec: 134
      nanosec: 780000000
    frame_id: odom
  child_frame_id: base_footprint
  transform:
    translation:
      x: -4.0372356905768214e-11
      y: 1.329814540951756e-21
      z: 0.0
    rotation:
      x: 0.0
      y: 0.0
      z: -8.467205961284086e-12
      w: 1.0
---
transforms:
- header:
    stamp:
      sec: 134
      nanosec: 780000000
    frame_id: dobby2/base_link
  child_frame_id: dobby2/left_wheel
  transform:
    translation:
      x: 0.0
      y: 0.2375
      z: 0.0
    rotation:
      x: -0.7071067811865475
      y: -1.2501620050690102e-13
      z: -1.2501620050690105e-13
      w: 0.7071067811865476
- header:
    stamp:
      sec: 134
      nanosec: 780000000
    frame_id: dobby2/base_link
  child_frame_id: dobby2/right_wheel
  transform:
    translation:
      x: 0.0
      y: -0.2375
      z: 0.0
    rotation:
      x: 0.7071067811865475
      y: 3.5181490922892204e-13
      z: -3.518149092289221e-13
      w: 0.7071067811865476
---
transforms:
- header:
    stamp:
      sec: 134
      nanosec: 797000000
    frame_id: dobby2/odom
  child_frame_id: dobby2/base_footprint
  transform:
    translation:
      x: 2.6461214969919788e-14
      y: 1.9846924685005434e-27
      z: 0.0
    rotation:
      x: 0.0
      y: 0.0
      z: 1.309014603101783e-13
      w: 1.0
---
transforms:
- header:
    stamp:
      sec: 134
      nanosec: 800000000
    frame_id: base_link
  child_frame_id: left_wheel
  transform:
    translation:
      x: 0.0
      y: 0.2375
      z: 0.0
    rotation:
      x: -0.7071067811865475
      y: -1.575939351830221e-10
      z: -1.5759393518302214e-10
      w: 0.7071067811865476
- header:
    stamp:
      sec: 134
      nanosec: 800000000
    frame_id: base_link
  child_frame_id: right_wheel
  transform:
    translation:
      x: 0.0
      y: -0.2375
      z: 0.0
    rotation:
      x: 0.7071067811865475
      y: -1.8843718410439691e-10
      z: 1.8843718410439697e-10
      w: 0.7071067811865476
---
transforms:
- header:
    stamp:
      sec: 134
      nanosec: 800000000
    frame_id: odom
  child_frame_id: base_footprint
  transform:
    translation:
      x: -4.037235690670064e-11
      y: 1.3298145409675463e-21
      z: 0.0
    rotation:
      x: 0.0
      y: 0.0
      z: -8.467206180968114e-12
      w: 1.0
---
transforms:
- header:
    stamp:
      sec: 135
      nanosec: 800000000
    frame_id: map
  child_frame_id: odom
  transform:
    translation:
      x: 1.533616476565049e-11
      y: 3.0528212540434873e-22
      z: 0.0
    rotation:
      x: -0.0
      y: -0.0
      z: 1.8836867350358133e-11
      w: 1.0
---
transforms:
- header:
    stamp:
      sec: 134
      nanosec: 817000000
    frame_id: dobby2/odom
  child_frame_id: dobby2/base_footprint
  transform:
    translation:
      x: 2.6461234676389573e-14
      y: 1.9846976277111215e-27
      z: 0.0
    rotation:
      x: 0.0
      y: 0.0
      z: 1.3090142105429195e-13
      w: 1.0
---
transforms:
- header:
    stamp:
      sec: 134
      nanosec: 820000000
    frame_id: odom
  child_frame_id: base_footprint
  transform:
    translation:
      x: -4.037235690615597e-11
      y: 1.3298145409583225e-21
      z: 0.0
    rotation:
      x: 0.0
      y: 0.0
      z: -8.46720640224292e-12
      w: 1.0
---
transforms:
- header:
    stamp:
      sec: 134
      nanosec: 830000000
    frame_id: dobby2/base_link
  child_frame_id: dobby2/left_wheel
  transform:
    translation:
      x: 0.0
      y: 0.2375
      z: 0.0
    rotation:
      x: -0.7071067811865475
      y: -1.2501581297566953e-13
      z: -1.2501581297566956e-13
      w: 0.7071067811865476
- header:
    stamp:
      sec: 134
      nanosec: 830000000
    frame_id: dobby2/base_link
  child_frame_id: dobby2/right_wheel
  transform:
    translation:
      x: 0.0
      y: -0.2375
      z: 0.0
    rotation:
      x: 0.7071067811865475
      y: 3.518149400615199e-13
      z: -3.5181494006152e-13
      w: 0.7071067811865476
---
transforms:
- header:
    stamp:
      sec: 134
      nanosec: 837000000
    frame_id: dobby2/odom
  child_frame_id: dobby2/base_footprint
  transform:
    translation:
      x: 2.6461254835761286e-14
      y: 1.9847029054911347e-27
      z: 0.0
    rotation:
      x: 0.0
      y: 0.0
      z: 1.3090138000922736e-13
      w: 1.0
---
transforms:
- header:
    stamp:
      sec: 134
      nanosec: 840000000
    frame_id: odom
  child_frame_id: base_footprint
  transform:
    translation:
      x: -4.037235690287761e-11
      y: 1.3298145409028054e-21
      z: 0.0
    rotation:
      x: 0.0
      y: 0.0
      z: -8.467206622008546e-12
      w: 1.0
---
transforms:
- header:
    stamp:
      sec: 134
      nanosec: 850000000
    frame_id: base_link
  child_frame_id: left_wheel
  transform:
    translation:
      x: 0.0
      y: 0.2375
      z: 0.0
    rotation:
      x: -0.7071067811865475
      y: -1.5759393415520633e-10
      z: -1.5759393415520636e-10
      w: 0.7071067811865476
- header:
    stamp:
      sec: 134
      nanosec: 850000000
    frame_id: base_link
  child_frame_id: right_wheel
  transform:
    translation:
      x: 0.0
      y: -0.2375
      z: 0.0
    rotation:
      x: 0.7071067811865475
      y: -1.8843718508678205e-10
      z: 1.884371850867821e-10
      w: 0.7071067811865476
---
transforms:
- header:
    stamp:
      sec: 134
      nanosec: 857000000
    frame_id: dobby2/odom
  child_frame_id: dobby2/base_footprint
  transform:
    translation:
      x: 2.6461275456385423e-14
      y: 1.984708304026552e-27
      z: 0.0
    rotation:
      x: 0.0
      y: 0.0
      z: 1.3090133845957093e-13
      w: 1.0
---
transforms:
- header:
    stamp:
      sec: 134
      nanosec: 860000000
    frame_id: odom
  child_frame_id: base_footprint
  transform:
    translation:
      x: -4.037235689898907e-11
      y: 1.3298145408369547e-21
      z: 0.0
    rotation:
      x: 0.0
      y: 0.0
      z: -8.467206843371016e-12
      w: 1.0
---
transforms:
- header:
    stamp:
      sec: 134
      nanosec: 877000000
    frame_id: dobby2/odom
  child_frame_id: dobby2/base_footprint
  transform:
    translation:
      x: 2.6461293848456014e-14
      y: 1.9847131191191148e-27
      z: 0.0
    rotation:
      x: 0.0
      y: 0.0
      z: 1.309012980510081e-13
      w: 1.0
---
transforms:
- header:
    stamp:
      sec: 134
      nanosec: 880000000
    frame_id: odom
  child_frame_id: base_footprint
  transform:
    translation:
      x: -4.03723568981886e-11
      y: 1.3298145408233993e-21
      z: 0.0
    rotation:
      x: 0.0
      y: 0.0
      z: -8.467207063098059e-12
      w: 1.0
---
transforms:
- header:
    stamp:
      sec: 134
      nanosec: 880000000
    frame_id: dobby2/base_link
  child_frame_id: dobby2/left_wheel
  transform:
    translation:
      x: 0.0
      y: 0.2375
      z: 0.0
    rotation:
      x: -0.7071067811865475
      y: -1.250154180743189e-13
      z: -1.2501541807431896e-13
      w: 0.7071067811865476
- header:
    stamp:
      sec: 134
      nanosec: 880000000
    frame_id: dobby2/base_link
  child_frame_id: dobby2/right_wheel
  transform:
    translation:
      x: 0.0
      y: -0.2375
      z: 0.0
    rotation:
      x: 0.7071067811865475
      y: 3.5181496050965984e-13
      z: -3.518149605096599e-13
      w: 0.7071067811865476
---
transforms:
- header:
    stamp:
      sec: 134
      nanosec: 897000000
    frame_id: dobby2/odom
  child_frame_id: dobby2/base_footprint
  transform:
    translation:
      x: 2.6461311898218148e-14
      y: 1.9847178445930025e-27
      z: 0.0
    rotation:
      x: 0.0
      y: 0.0
      z: 1.3090125726597353e-13
      w: 1.0
---
transforms:
- header:
    stamp:
      sec: 134
      nanosec: 900000000
    frame_id: base_link
  child_frame_id: left_wheel
  transform:
    translation:
      x: 0.0
      y: 0.2375
      z: 0.0
    rotation:
      x: -0.7071067811865475
      y: -1.5759393313809797e-10
      z: -1.57593933138098e-10
      w: 0.7071067811865476
- header:
    stamp:
      sec: 134
      nanosec: 900000000
    frame_id: base_link
  child_frame_id: right_wheel
  transform:
    translation:
      x: 0.0
      y: -0.2375
      z: 0.0
    rotation:
      x: 0.7071067811865475
      y: -1.8843718607413796e-10
      z: 1.88437186074138e-10
      w: 0.7071067811865476
---
transforms:
- header:
    stamp:
      sec: 134
      nanosec: 900000000
    frame_id: odom
  child_frame_id: base_footprint
  transform:
    translation:
      x: -4.037235689792885e-11
      y: 1.3298145408190007e-21
      z: 0.0
    rotation:
      x: 0.0
      y: 0.0
      z: -8.467207283089292e-12
      w: 1.0
---
transforms:
- header:
    stamp:
      sec: 134
      nanosec: 917000000
    frame_id: dobby2/odom
